[
  { "cityName": "Saldus", "latitude": 56.665484, "longitude": 22.488055 },
  { "cityName": "Alūksne", "latitude": 57.394049, "longitude": 27.161131 },
  { "cityName": "Aloja", "latitude": 57.832553, "longitude": 24.774952 },
  { "cityName": "Kalnciems", "latitude": 56.799641, "longitude": 23.616077 },
  { "cityName": "Sigulda", "latitude": 57.050886, "longitude": 24.824516 },
  { "cityName": "Ludza", "latitude": 56.406334, "longitude": 27.828258 },
  { "cityName": "Bauska", "latitude": 56.419895, "longitude": 24.33518 },
  { "cityName": "Smiltene", "latitude": 57.416154, "longitude": 26.072152 },
  { "cityName": "Cēsis", "latitude": 57.243921, "longitude": 25.414883 },
  { "cityName": "Brocēni", "latitude": 56.717238, "longitude": 22.657024 },
  { "cityName": "Durbe", "latitude": 56.607407, "longitude": 21.366862 },
  { "cityName": "Gulbene", "latitude": 57.153825, "longitude": 26.639743 },
  { "cityName": "Cesvaine", "latitude": 57.010687, "longitude": 26.277245 },
  { "cityName": "Kārsava", "latitude": 56.745762, "longitude": 27.628168 },
  { "cityName": "Ainaži", "latitude": 57.86328, "longitude": 24.358257 },
  { "cityName": "Dagda", "latitude": 56.130958, "longitude": 27.637552 },
  { "cityName": "Līgatne", "latitude": 57.188041, "longitude": 25.059184 },
  { "cityName": "Jēkabpils", "latitude": 56.501326, "longitude": 25.868024 },
  { "cityName": "Līvāni", "latitude": 56.390504, "longitude": 26.280381 },
  { "cityName": "Rēzekne", "latitude": 56.63023, "longitude": 27.179103 },
  { "cityName": "Krāslava", "latitude": 55.912938, "longitude": 27.287222 },
  { "cityName": "Koknese", "latitude": 56.705258, "longitude": 25.485242 },
  { "cityName": "Auce", "latitude": 56.495651, "longitude": 23.002782 },
  { "cityName": "Lubāna", "latitude": 56.937314, "longitude": 26.763754 },
  { "cityName": "Pāvilosta", "latitude": 56.792659, "longitude": 21.17107 },
  { "cityName": "Jaunjelgava", "latitude": 56.518052, "longitude": 25.391909 },
  { "cityName": "Olaine", "latitude": 56.791242, "longitude": 23.96528 },
  { "cityName": "Liepāja", "latitude": 56.538179, "longitude": 21.0226 },
  { "cityName": "Baloži", "latitude": 56.93333, "longitude": 26.63333 },
  { "cityName": "Mazsalaca", "latitude": 57.913232, "longitude": 25.037077 },
  { "cityName": "Aizpute", "latitude": 56.751247, "longitude": 21.542717 },
  { "cityName": "Preiļi", "latitude": 56.173976, "longitude": 26.741976 },
  { "cityName": "Daugavpils", "latitude": 55.880097, "longitude": 26.53849 },
  { "cityName": "Aizkraukle", "latitude": 56.605406, "longitude": 25.252701 },
  { "cityName": "Seda", "latitude": 57.650727, "longitude": 25.751936 },
  { "cityName": "Iecava", "latitude": 56.602016, "longitude": 24.223432 },
  { "cityName": "Skrunda", "latitude": 56.649325, "longitude": 22.009808 },
  { "cityName": "Piltene", "latitude": 57.52464, "longitude": 22.4394 },
  { "cityName": "Dobele", "latitude": 56.592531, "longitude": 23.221151 },
  { "cityName": "Valdemārpils", "latitude": 57.371443, "longitude": 22.592434 },
  { "cityName": "Vangaži", "latitude": 57.092234, "longitude": 24.545493 },
  { "cityName": "Varakļāni", "latitude": 56.626917, "longitude": 26.666062 },
  { "cityName": "Valmiera", "latitude": 57.536222, "longitude": 25.424726 },
  { "cityName": "Zilupe", "latitude": 56.386178, "longitude": 28.121364 },
  { "cityName": "Tukums", "latitude": 57.018215, "longitude": 23.024867 },
  { "cityName": "Viļaka", "latitude": 57.194498, "longitude": 27.657851 },
  { "cityName": "Stende", "latitude": 57.19093, "longitude": 22.55124 },
  { "cityName": "Viesīte", "latitude": 56.294394, "longitude": 25.53697 },
  { "cityName": "Talsi", "latitude": 57.27914, "longitude": 22.575309 },
  { "cityName": "Subate", "latitude": 56.007272, "longitude": 25.909922 },
  { "cityName": "Valka", "latitude": 57.774623, "longitude": 26.008309 },
  { "cityName": "Ventspils", "latitude": 57.403641, "longitude": 21.596579 },
  { "cityName": "Ķegums", "latitude": 56.63862, "longitude": 24.768678 },
  { "cityName": "Viļāni", "latitude": 56.556974, "longitude": 26.893459 },
  { "cityName": "Balvi", "latitude": 57.14875, "longitude": 27.291726 },
  { "cityName": "Ikšķile", "latitude": 56.839276, "longitude": 24.49626 },
  { "cityName": "Priekule", "latitude": 56.42872, "longitude": 21.560613 },
  { "cityName": "Jelgava", "latitude": 56.650766, "longitude": 23.7151 },
  { "cityName": "Ape", "latitude": 57.472398, "longitude": 26.446379 },
  { "cityName": "Salacgrīva", "latitude": 57.774485, "longitude": 24.480498 },
  { "cityName": "Aknīste", "latitude": 56.159369, "longitude": 25.774774 },
  { "cityName": "Rūjiena", "latitude": 57.844169, "longitude": 25.322652 },
  { "cityName": "Lielvārde", "latitude": 56.72651, "longitude": 24.952858 },
  { "cityName": "Madona", "latitude": 56.777263, "longitude": 26.274767 },
  { "cityName": "Ogre", "latitude": 56.823132, "longitude": 25.181605 },
  { "cityName": "Kuldīga", "latitude": 56.955132, "longitude": 21.938478 },
  { "cityName": "Limbaži", "latitude": 57.511884, "longitude": 24.721082 },
  { "cityName": "Pļaviņas", "latitude": 56.694591, "longitude": 25.726205 },
  { "cityName": "Ilūkste", "latitude": 55.995822, "longitude": 26.175049 },
  { "cityName": "Jūrmala", "latitude": 56.952187, "longitude": 23.711956 },
  { "cityName": "Kandava", "latitude": 56.927612, "longitude": 22.705712 },
  { "cityName": "Grobiņa", "latitude": 56.425899, "longitude": 21.308352 },
  { "cityName": "Rīga", "latitude": 56.971149, "longitude": 24.142749 },
  { "cityName": "Saulkrasti", "latitude": 57.256563, "longitude": 24.433497 },
  { "cityName": "Baldone", "latitude": 56.732344, "longitude": 24.375652 },
  { "cityName": "Sabile", "latitude": 57.046723, "longitude": 22.564892 },
  { "cityName": "Salaspils", "latitude": 56.858844, "longitude": 24.356031 },
  { "cityName": "Strenči", "latitude": 57.647395, "longitude": 25.783667 },
  { "cityName": "Staicele", "latitude": 57.830396, "longitude": 24.758585 }
]
